0.53926950	$GPRMC,200443,A,3604.8288,N,07958.1055,W,000.6,332.7,060818,008.0,W*72
0.54327150	$GPGGA,200443,3604.8288,N,07958.1055,W,1,07,0.9,333.3,M,-32.7,M,,*7D
0.54627300	$GPGSA,A,3,19,05,12,06,09,29,,13,,,,,2.0,0.9,1.7*37
0.54827400	$GPGSV,3,1,10,19,24,132,24,05,75,235,22,12,34,226,34,06,28,074,28*71
0.54827400	$GPGSV,3,2,10,09,13,043,23,29,21,317,16,17,01,135,24,13,13,165,17*7C
0.54927450	$GPGSV,3,3,10,02,65,021,00,25,32,280,00*76
1.89794850	$GPRMC,200444,A,3604.8288,N,07958.1055,W,000.6,332.7,060818,008.0,W*75
1.89994950	$GPGGA,200444,3604.8288,N,07958.1055,W,1,07,0.9,333.3,M,-32.7,M,,*7A
1.89994950	$GPGSA,A,3,19,05,12,06,09,29,,13,,,,,2.0,0.9,1.7*37
1.90095000	$GPGSV,3,1,10,19,24,132,23,05,75,235,22,12,34,226,34,06,28,074,28*76
1.90095000	$GPGSV,3,2,10,09,13,043,23,29,21,317,16,17,01,135,24,13,13,165,17*7C
1.90195050	$GPGSV,3,3,10,02,65,021,00,25,32,280,00*76
2.49224550	$GPRMC,200445,A,3604.8288,N,07958.1055,W,000.3,332.7,060818,008.0,W*71
2.49424650	$GPGGA,200445,3604.8288,N,07958.1055,W,1,07,0.9,333.3,M,-32.7,M,,*7B
2.49624750	$GPGSA,A,3,19,05,12,06,09,29,,13,,,,,2.0,0.9,1.7*37
2.49824850	$GPGSV,3,1,10,19,24,132,22,05,75,235,22,12,34,226,34,06,28,074,28*77
2.50024950	$GPGSV,3,2,10,09,13,043,22,29,21,317,16,17,01,135,24,13,13,165,18*72
2.50125000	$GPGSV,3,3,10,02,65,021,00,25,32,280,00*76
3.51175500	$GPRMC,200446,A,3604.8288,N,07958.1055,W,000.4,332.7,060818,008.0,W*75
3.51375600	$GPGGA,200446,3604.8288,N,07958.1055,W,1,07,0.9,333.3,M,-32.7,M,,*78
3.51575700	$GPGSA,A,3,19,05,12,06,09,29,,13,,,,,2.0,0.9,1.7*37
3.51775800	$GPGSV,3,1,10,19,24,132,21,05,75,235,22,12,34,226,34,06,28,074,29*75
3.51975900	$GPGSV,3,2,10,09,13,043,22,29,21,317,16,17,01,135,24,13,13,165,18*72
3.51975900	$GPGSV,3,3,10,02,65,021,00,25,32,280,00*76
4.52626200	$GPRMC,200447,A,3604.8288,N,07958.1055,W,000.3,332.7,060818,008.0,W*73
4.52826300	$GPGGA,200447,3604.8288,N,07958.1055,W,1,07,0.9,333.3,M,-32.7,M,,*79
4.53026400	$GPGSA,A,3,19,05,12,06,09,29,,13,,,,,2.0,0.9,1.7*37
4.53226500	$GPGSV,3,1,10,19,24,132,21,05,75,235,23,12,34,226,34,06,28,074,29*74
4.53426600	$GPGSV,3,2,10,09,13,043,22,29,21,317,16,17,01,135,25,13,13,165,19*72
4.53526650	$GPGSV,3,3,10,02,65,021,00,25,32,280,00*76
5.49274500	$GPRMC,200448,A,3604.8288,N,07958.1055,W,000.3,332.7,060818,008.0,W*7C
5.49474600	$GPGGA,200448,3604.8288,N,07958.1055,W,1,07,0.9,333.3,M,-32.7,M,,*76
5.49574650	$GPGSA,A,3,19,05,12,06,09,29,,13,,,,,2.0,0.9,1.7*37
5.49874800	$GPGSV,3,1,10,19,24,132,19,05,75,235,23,12,34,226,34,06,28,074,29*7F
5.50074900	$GPGSV,3,2,10,09,13,043,22,29,21,317,16,17,01,135,25,13,13,165,19*72
5.50174950	$GPGSV,3,3,10,02,65,021,00,25,32,280,00*76
6.50925300	$GPRMC,200449,A,3604.8288,N,07958.1055,W,000.2,332.7,060818,008.0,W*7C
6.51125400	$GPGGA,200449,3604.8288,N,07958.1055,W,1,07,0.9,333.3,M,-32.7,M,,*77
6.51325500	$GPGSA,A,3,19,05,12,06,09,29,,13,,,,,2.0,0.9,1.7*37
6.51525600	$GPGSV,3,1,10,19,24,132,19,05,75,235,23,12,34,226,34,06,28,074,29*7F
6.51625650	$GPGSV,3,2,10,09,13,043,22,29,21,317,16,17,01,135,26,13,13,165,20*7B
6.51725700	$GPGSV,3,3,10,02,65,021,00,25,32,280,00*76
7.52476050	$GPRMC,200450,A,3604.8288,N,07958.1055,W,000.2,332.7,060818,008.0,W*74
7.52676150	$GPGGA,200450,3604.8288,N,07958.1055,W,1,07,0.9,333.3,M,-32.7,M,,*7F
7.52776200	$GPGSA,A,3,19,05,12,06,09,29,,13,,,,,2.0,0.9,1.7*37
7.53076350	$GPGSV,3,1,10,19,24,132,18,05,75,235,22,12,34,226,34,06,28,074,28*7E
7.53876750	$GPGSV,3,2,10,09,13,043,22,29,21,317,16,17,01,135,26,13,13,165,20*7B
7.53876750	$GPGSV,3,3,10,02,65,021,00,25,32,280,00*76
8.54427000	$GPRMC,200451,A,3604.8272,N,07958.1044,W,000.3,332.7,060818,008.0,W*71
8.54627100	$GPGGA,200451,3604.8272,N,07958.1044,W,1,07,0.9,334.1,M,-32.7,M,,*7E
8.54827200	$GPGSA,A,3,19,05,12,06,09,29,,13,,,,,2.0,0.9,1.7*37
8.55027300	$GPGSV,3,1,10,19,24,132,18,05,75,235,22,12,34,226,34,06,28,074,28*7E
8.55227400	$GPGSV,3,2,10,09,13,043,22,29,21,317,16,17,01,135,26,13,13,165,22*79
8.55227400	$GPGSV,3,3,10,02,65,021,00,25,32,280,00*76
9.49974750	$GPRMC,200452,A,3604.8272,N,07958.1044,W,000.3,332.7,060818,008.0,W*72
9.50174850	$GPGGA,200452,3604.8272,N,07958.1044,W,1,07,0.9,334.1,M,-32.7,M,,*7D
9.50374950	$GPGSA,A,3,19,05,12,06,09,29,,13,,,,,2.0,0.9,1.7*37
9.50475000	$GPGSV,3,1,10,19,24,132,18,05,75,235,22,12,34,226,33,06,28,074,27*76
9.50675100	$GPGSV,3,2,10,09,13,043,23,29,21,317,16,17,01,135,26,13,13,165,24*7E
9.50775150	$GPGSV,3,3,10,02,65,021,00,25,32,280,00*76
