0.352176	$GPRMC,150510,A,3417.6060,N,08059.8261,W,066.3,182.0,280718,006.8,W*7C
0.354177	$GPGGA,150510,3417.6060,N,08059.8261,W,1,09,1.4,146.8,M,-32.3,M,,*70
0.358179	$GPGSA,A,3,30,28,01,17,18,11,07,,03,22,,,3.1,1.4,2.7*33
0.359180	$GPGSV,3,1,12,30,54,202,34,28,67,001,36,01,52,057,33,17,50,281,31*7C
0.360180	$GPGSV,3,2,12,18,27,045,32,11,40,048,36,07,28,174,38,19,26,260,10*77
0.360180	$GPGSV,3,3,12,03,16,118,24,22,19,093,29,06,14,206,00,13,10,275,00*7D
1.594797	$GPRMC,150511,A,3417.5875,N,08059.8269,W,066.3,181.9,280718,006.8,W*70
1.595798	$GPGGA,150511,3417.5875,N,08059.8269,W,1,09,1.4,146.4,M,-32.3,M,,*7A
1.595798	$GPGSA,A,3,30,28,01,17,18,11,07,,03,22,,,3.1,1.4,2.7*33
1.595798	$GPGSV,3,1,12,30,54,202,33,28,67,001,35,01,52,057,32,17,50,281,29*70
1.596798	$GPGSV,3,2,12,18,27,045,32,11,40,048,36,07,28,174,38,19,26,260,10*77
1.596798	$GPGSV,3,3,12,03,16,118,24,22,19,093,29,06,14,206,00,13,10,275,00*7D
2.336168	$GPRMC,150512,A,3417.5691,N,08059.8276,W,066.4,181.6,280718,006.8,W*71
2.338169	$GPGGA,150512,3417.5691,N,08059.8276,W,1,09,1.4,145.9,M,-32.3,M,,*7D
2.340170	$GPGSA,A,3,30,28,01,17,18,11,07,03,22,,,,3.1,1.4,2.7*33
2.342171	$GPGSV,3,1,12,30,54,202,33,28,67,001,35,01,52,057,32,17,50,281,28*71
2.344172	$GPGSV,3,2,12,18,27,045,33,11,40,048,36,07,28,174,38,03,16,118,26*77
2.346173	$GPGSV,3,3,12,22,19,093,30,06,14,206,00,13,10,275,00,19,26,260,00*77
3.340670	$GPRMC,150513,A,3417.5506,N,08059.8283,W,066.4,181.9,280718,006.8,W*78
3.342671	$GPGGA,150513,3417.5506,N,08059.8283,W,1,09,1.4,145.5,M,-32.3,M,,*77
3.344672	$GPGSA,A,3,30,28,01,17,18,11,07,03,22,,,,3.1,1.4,2.7*33
3.346673	$GPGSV,3,1,12,30,54,202,34,28,67,001,35,01,52,057,32,17,50,281,30*7F
3.348674	$GPGSV,3,2,12,18,27,045,33,11,40,048,36,07,28,174,38,03,16,118,27*76
3.350675	$GPGSV,3,3,12,22,19,093,31,06,14,206,00,13,10,275,00,19,26,260,00*76
4.316157	$GPRMC,150514,A,3417.5322,N,08059.8290,W,066.4,182.1,280718,006.8,W*76
4.319159	$GPGGA,150514,3417.5322,N,08059.8290,W,1,09,1.4,145.0,M,-32.3,M,,*77
4.320159	$GPGSA,A,3,30,28,01,17,18,11,07,03,22,,,,3.1,1.4,2.7*33
4.322160	$GPGSV,3,1,12,30,54,202,34,28,67,001,35,01,52,057,32,17,50,281,28*76
4.324161	$GPGSV,3,2,12,18,27,045,33,11,40,048,36,07,28,174,37,03,16,118,26*78
4.327163	$GPGSV,3,3,12,22,19,093,31,06,14,206,00,13,10,275,00,19,26,260,00*76
5.345672	$GPRMC,150515,A,3417.5137,N,08059.8298,W,066.3,181.9,280718,006.8,W*75
5.347673	$GPGGA,150515,3417.5137,N,08059.8298,W,1,09,1.4,144.5,M,-32.3,M,,*7C
5.350674	$GPGSA,A,3,30,28,01,17,18,11,07,03,22,,,,3.1,1.4,2.7*33
5.352675	$GPGSV,3,1,12,30,54,202,33,28,67,001,35,01,52,057,32,17,50,281,27*7E
5.353676	$GPGSV,3,2,12,18,27,045,33,11,40,048,36,07,28,174,37,03,16,118,25*7B
5.355677	$GPGSV,3,3,12,22,19,093,31,06,14,206,00,13,10,275,00,19,26,260,00*76
6.323160	$GPRMC,150516,A,3417.4953,N,08059.8306,W,066.3,181.7,280718,006.8,W*75
6.325161	$GPGGA,150516,3417.4953,N,08059.8306,W,1,09,1.4,144.1,M,-32.3,M,,*76
6.327162	$GPGSA,A,3,30,28,01,17,18,11,07,,03,22,,,3.1,1.4,2.7*33
6.329163	$GPGSV,3,1,12,30,54,202,33,28,67,001,36,01,52,057,32,17,50,281,29*73
6.331164	$GPGSV,3,2,12,18,27,045,33,11,40,048,35,07,28,174,37,19,26,260,11*7B
6.333165	$GPGSV,3,3,12,03,16,118,23,22,19,093,31,06,14,206,00,13,10,275,00*73
7.300649	$GPRMC,150517,A,3417.4769,N,08059.8313,W,066.2,181.7,280718,006.8,W*76
7.302650	$GPGGA,150517,3417.4769,N,08059.8313,W,1,09,1.4,143.7,M,-32.3,M,,*75
7.304651	$GPGSA,A,3,30,28,01,17,18,11,07,,03,22,,,3.1,1.4,2.7*33
7.306652	$GPGSV,3,1,12,30,54,202,33,28,67,001,36,01,52,057,34,17,50,281,31*7C
7.317657	$GPGSV,3,2,12,18,27,045,33,11,40,048,35,07,28,174,36,19,26,260,12*79
7.317657	$GPGSV,3,3,12,03,16,118,22,22,19,093,30,06,14,206,00,13,10,275,00*73
8.330163	$GPRMC,150518,A,3417.4584,N,08059.8320,W,066.3,181.7,280718,006.8,W*79
8.332164	$GPGGA,150518,3417.4584,N,08059.8320,W,1,09,1.4,143.2,M,-32.3,M,,*7E
8.334165	$GPGSA,A,3,30,28,01,17,18,11,07,,03,22,,,3.1,1.4,2.7*33
8.336166	$GPGSV,3,1,12,30,54,202,33,28,67,001,36,01,52,057,34,17,50,281,32*7F
8.338167	$GPGSV,3,2,12,18,27,045,33,11,40,048,36,07,28,174,36,19,26,260,13*7B
8.340168	$GPGSV,3,3,12,03,16,118,22,22,19,093,28,06,14,206,00,13,10,275,00*7A
9.307652	$GPRMC,150519,A,3417.4400,N,08059.8328,W,066.3,181.7,280718,006.8,W*7D
9.309653	$GPGGA,150519,3417.4400,N,08059.8328,W,1,09,1.4,142.8,M,-32.3,M,,*71
9.311654	$GPGSA,A,3,30,28,01,17,18,11,07,,03,22,,,3.1,1.4,2.7*33
9.313655	$GPGSV,3,1,12,30,54,202,32,28,67,001,37,01,52,057,35,17,50,281,33*7F
9.315656	$GPGSV,3,2,12,18,27,045,33,11,40,048,36,07,28,174,35,19,26,260,14*7F
9.317657	$GPGSV,3,3,12,03,16,118,20,22,19,093,24,06,14,206,00,13,10,275,00*74
